{
  "AU": {
    "country": "Australia",
    "destinations": [
      {"city": "Sydney", "airport": "SYD", "lat": -33.8688, "lng": 151.2093},
      {"city": "Melbourne", "airport": "MEL", "lat": -37.8136, "lng": 144.9631},
      {"city": "Brisbane", "airport": "BNE", "lat": -27.4698, "lng": 153.0251},
      {"city": "Perth", "airport": "PER", "lat": -31.9505, "lng": 115.8605},
      {"city": "Adelaide", "airport": "ADL", "lat": -34.9285, "lng": 138.6007}
    ]
  },
  "BR": {
    "country": "Brazil",
    "destinations": [
      {"city": "Sao Paulo", "airport": "GRU", "lat": -23.5505, "lng": -46.6333},
      {"city": "Rio de Janeiro", "airport": "GIG", "lat": -22.9068, "lng": -43.1729},
      {"city": "Brasilia", "airport": "BSB", "lat": -15.8267, "lng": -47.9218},
      {"city": "Salvador", "airport": "SSA", "lat": -12.9777, "lng": -38.5016}
    ]
  },
  "CA": {
    "country": "Canada",
    "destinations": [
      {"city": "Toronto", "airport": "YYZ", "lat": 43.6532, "lng": -79.3832},
      {"city": "Vancouver", "airport": "YVR", "lat": 49.2827, "lng": -123.1207},
      {"city": "Montreal", "airport": "YUL", "lat": 45.5017, "lng": -73.5673},
      {"city": "Calgary", "airport": "YYC", "lat": 51.0447, "lng": -114.0719},
      {"city": "Quebec City", "airport": "YQB", "lat": 46.8139, "lng": -71.208}
    ]
  },
  "DE": {
    "country": "Germany",
    "destinations": [
      {"city": "Berlin", "airport": "BER", "lat": 52.52, "lng": 13.405},
      {"city": "Munich", "airport": "MUC", "lat": 48.1351, "lng": 11.582},
      {"city": "Frankfurt", "airport": "FRA", "lat": 50.1109, "lng": 8.6821},
      {"city": "Hamburg", "airport": "HAM", "lat": 53.5511, "lng": 9.9937},
      {"city": "Cologne", "airport": "CGN", "lat": 50.9375, "lng": 6.9603}
    ]
  },
  "ES": {
    "country": "Spain",
    "destinations": [
      {"city": "Madrid", "airport": "MAD", "lat": 40.4168, "lng": -3.7038},
      {"city": "Barcelona", "airport": "BCN", "lat": 41.3874, "lng": 2.1686},
      {"city": "Valencia", "airport": "VLC", "lat": 39.4699, "lng": -0.3763},
      {"city": "Seville", "airport": "SVQ", "lat": 37.3891, "lng": -5.9845},
      {"city": "Malaga", "airport": "AGP", "lat": 36.7213, "lng": -4.4214}
    ]
  },
  "FR": {
    "country": "France",
    "destinations": [
      {"city": "Paris", "airport": "CDG", "lat": 48.8566, "lng": 2.3522},
      {"city": "Nice", "airport": "NCE", "lat": 43.7102, "lng": 7.262},
      {"city": "Lyon", "airport": "LYS", "lat": 45.764, "lng": 4.8357},
      {"city": "Marseille", "airport": "MRS", "lat": 43.2965, "lng": 5.3698},
      {"city": "Bordeaux", "airport": "BOD", "lat": 44.8378, "lng": -0.5792}
    ]
  },
  "GB": {
    "country": "United Kingdom",
    "destinations": [
      {"city": "London", "airport": "LHR", "lat": 51.5072, "lng": -0.1276},
      {"city": "Manchester", "airport": "MAN", "lat": 53.4808, "lng": -2.2426},
      {"city": "Edinburgh", "airport": "EDI", "lat": 55.9533, "lng": -3.1883},
      {"city": "Glasgow", "airport": "GLA", "lat": 55.8642, "lng": -4.2518},
      {"city": "Birmingham", "airport": "BHX", "lat": 52.4862, "lng": -1.8904}
    ]
  },
  "GR": {
    "country": "Greece",
    "destinations": [
      {"city": "Athens", "airport": "ATH", "lat": 37.9838, "lng": 23.7275},
      {"city": "Thessaloniki", "airport": "SKG", "lat": 40.6401, "lng": 22.9444},
      {"city": "Heraklion", "airport": "HER", "lat": 35.3387, "lng": 25.1442},
      {"city": "Santorini", "airport": "JTR", "lat": 36.3932, "lng": 25.4615}
    ]
  },
  "IT": {
    "country": "Italy",
    "destinations": [
      {"city": "Rome", "airport": "FCO", "lat": 41.9028, "lng": 12.4964},
      {"city": "Milan", "airport": "MXP", "lat": 45.4642, "lng": 9.19},
      {"city": "Venice", "airport": "VCE", "lat": 45.4408, "lng": 12.3155},
      {"city": "Florence", "airport": "FLR", "lat": 43.7696, "lng": 11.2558},
      {"city": "Naples", "airport": "NAP", "lat": 40.8518, "lng": 14.2681}
    ]
  },
  "JP": {
    "country": "Japan",
    "destinations": [
      {"city": "Tokyo", "airport": "HND", "lat": 35.6762, "lng": 139.6503},
      {"city": "Osaka", "airport": "KIX", "lat": 34.6937, "lng": 135.5023},
      {"city": "Sapporo", "airport": "CTS", "lat": 43.0618, "lng": 141.3545},
      {"city": "Fukuoka", "airport": "FUK", "lat": 33.5902, "lng": 130.4017},
      {"city": "Okinawa", "airport": "OKA", "lat": 26.2124, "lng": 127.6809}
    ]
  },
  "MX": {
    "country": "Mexico",
    "destinations": [
      {"city": "Mexico City", "airport": "MEX", "lat": 19.4326, "lng": -99.1332},
      {"city": "Cancun", "airport": "CUN", "lat": 21.1619, "lng": -86.8515},
      {"city": "Guadalajara", "airport": "GDL", "lat": 20.6597, "lng": -103.3496},
      {"city": "Monterrey", "airport": "MTY", "lat": 25.6866, "lng": -100.3161}
    ]
  },
  "NL": {
    "country": "Netherlands",
    "destinations": [
      {"city": "Amsterdam", "airport": "AMS", "lat": 52.3676, "lng": 4.9041},
      {"city": "Rotterdam", "airport": "RTM", "lat": 51.9244, "lng": 4.4777},
      {"city": "Eindhoven", "airport": "EIN", "lat": 51.4416, "lng": 5.4697}
    ]
  },
  "PT": {
    "country": "Portugal",
    "destinations": [
      {"city": "Lisbon", "airport": "LIS", "lat": 38.7223, "lng": -9.1393},
      {"city": "Porto", "airport": "OPO", "lat": 41.1579, "lng": -8.6291},
      {"city": "Faro", "airport": "FAO", "lat": 37.0194, "lng": -7.9322},
      {"city": "Madeira", "airport": "FNC", "lat": 32.7607, "lng": -16.9595}
    ]
  },
  "TH": {
    "country": "Thailand",
    "destinations": [
      {"city": "Bangkok", "airport": "BKK", "lat": 13.7563, "lng": 100.5018},
      {"city": "Phuket", "airport": "HKT", "lat": 7.8804, "lng": 98.3923},
      {"city": "Chiang Mai", "airport": "CNX", "lat": 18.7883, "lng": 98.9853},
      {"city": "Krabi", "airport": "KBV", "lat": 8.0863, "lng": 98.9063}
    ]
  },
  "US": {
    "country": "United States",
    "destinations": [
      {"city": "New York", "airport": "JFK", "lat": 40.7128, "lng": -74.006},
      {"city": "Los Angeles", "airport": "LAX", "lat": 34.0522, "lng": -118.2437},
      {"city": "Chicago", "airport": "ORD", "lat": 41.8781, "lng": -87.6298},
      {"city": "San Francisco", "airport": "SFO", "lat": 37.7749, "lng": -122.4194},
      {"city": "Miami", "airport": "MIA", "lat": 25.7617, "lng": -80.1918},
      {"city": "Seattle", "airport": "SEA", "lat": 47.6062, "lng": -122.3321},
      {"city": "Las Vegas", "airport": "LAS", "lat": 36.1699, "lng": -115.1398}
    ]
  }
}

